[
  {
    "id": 944,
    "name": "大地湾遗址",
    "province": "甘肃省",
    "city": "秦安县",
    "dynasty": "新石器时代",
    "year": "约公元前6000年-前3000年",
    "coordinates": [
      105.9224444749431,
      35.02048710636538
    ]
  },
  {
    "id": 1231,
    "name": "筑卫城遗址",
    "province": "江西省",
    "city": "樟树市",
    "dynasty": "新石器时代",
    "year": "约公元前4500年",
    "coordinates": [
      115.6077512608715,
      28.03733530754644
    ]
  },
  {
    "id": 280,
    "name": "大汶口遗址",
    "province": "山东省",
    "city": "未知",
    "dynasty": "新石器时代",
    "year": "约公元前4100年-前2600年",
    "coordinates": [
      117.099641361266,
      35.98461530185981
    ]
  },
  {
    "id": 1035,
    "name": "牛河梁遗址",
    "province": "辽宁省",
    "city": "凌源县",
    "dynasty": "新石器时代（红山文化晚期）",
    "year": "约公元前3600年-前3000年",
    "coordinates": [
      123.4299456250593,
      41.80113372670291
    ]
  },
  {
    "id": 839,
    "name": "良渚古城遗址",
    "province": "未知",
    "city": "未知",
    "dynasty": "新石器时代",
    "year": "约公元前3300年-公元前2300年",
    "coordinates": [
      0,
      0
    ]
  },
  {
    "id": 1114,
    "name": "良渚遗址",
    "province": "浙江省",
    "city": "余杭市",
    "dynasty": "新石器时代",
    "year": "约公元前3300-前2300年",
    "coordinates": [
      119.9782502919138,
      30.39608098972102
    ]
  },
  {
    "id": 1206,
    "name": "古城寨城址",
    "province": "河南省",
    "city": "新密市",
    "dynasty": "龙山文化时期",
    "year": "约公元前2300年-前2000年",
    "coordinates": [
      113.6462185516094,
      34.46590848165945
    ]
  },
  {
    "id": 1433,
    "name": "石峁遗址",
    "province": "陕西省",
    "city": "神木县",
    "dynasty": "新石器时代晚期",
    "year": "约公元前2300年至公元前1900年",
    "coordinates": [
      110.4474972616121,
      39.06336040687921
    ]
  },
  {
    "id": 1775,
    "name": "三座店石城遗址",
    "province": "内蒙古自治区",
    "city": "赤峰市",
    "dynasty": "夏家店下层文化时期",
    "year": "约公元前2000年至前1500年",
    "coordinates": [
      118.6183202605215,
      42.35963814022556
    ]
  },
  {
    "id": 833,
    "name": "殷墟",
    "province": "未知",
    "city": "未知",
    "dynasty": "商代",
    "year": "约公元前1300年",
    "coordinates": [
      0,
      0
    ]
  },
  {
    "id": 1698,
    "name": "盘门",
    "province": "江苏省",
    "city": "苏州市",
    "dynasty": "春秋时期",
    "year": "公元前514年",
    "coordinates": [
      120.6120870576555,
      31.28958404345354
    ]
  },
  {
    "id": 1673,
    "name": "京杭大运河",
    "province": "北京市",
    "city": "未知",
    "dynasty": "春秋至清代",
    "year": "春秋时期（公元前486年）开凿，隋唐、元代大规模扩建",
    "coordinates": [
      119.9435424916911,
      31.78151762044439
    ]
  },
  {
    "id": 9,
    "name": "孔林",
    "province": "山东",
    "city": "曲阜市",
    "dynasty": "春秋",
    "year": "公元前479年",
    "coordinates": [
      117,
      35.6
    ]
  },
  {
    "id": 951,
    "name": "秦咸阳城遗址",
    "province": "陕西省",
    "city": "咸阳市",
    "dynasty": "秦代",
    "year": "公元前350年",
    "coordinates": [
      108.8555749344991,
      34.41462075667284
    ]
  },
  {
    "id": 13,
    "name": "都江堰",
    "province": "四川",
    "city": "都江堰市",
    "dynasty": "战国时期",
    "year": "约公元前256年",
    "coordinates": [
      103.6167,
      31
    ]
  },
  {
    "id": 821,
    "name": "秦始皇陵及兵马俑",
    "province": "未知",
    "city": "未知",
    "dynasty": "秦代",
    "year": "公元前246年",
    "coordinates": [
      0,
      0
    ]
  },
  {
    "id": 858,
    "name": "秦始皇陵",
    "province": "陕西省",
    "city": "临潼县",
    "dynasty": "秦代",
    "year": "公元前246年",
    "coordinates": [
      109.2597683104563,
      34.38649913783346
    ]
  },
  {
    "id": 1055,
    "name": "郑国渠首遗址",
    "province": "陕西省",
    "city": "泾阳县",
    "dynasty": "战国",
    "year": "公元前246年",
    "coordinates": [
      108.6279282843204,
      34.61041733141427
    ]
  },
  {
    "id": 759,
    "name": "歙县",
    "province": "安徽省",
    "city": "未知",
    "dynasty": "秦代",
    "year": "公元前221年",
    "coordinates": [
      118.4100725024801,
      29.86368955458164
    ]
  },
  {
    "id": 1062,
    "name": "固阳秦长城遗址",
    "province": "内蒙古自治区",
    "city": "固阳县",
    "dynasty": "秦代",
    "year": "公元前214年左右",
    "coordinates": [
      110.0517020670837,
      41.11014812875155
    ]
  },
  {
    "id": 1149,
    "name": "秦长城遗址",
    "province": "内蒙古自治区",
    "city": "伊金霍洛旗，宁夏回族自治区彭阳县",
    "dynasty": "秦代",
    "year": "公元前214年左右",
    "coordinates": [
      106.2745794814824,
      36.04459721914375
    ]
  },
  {
    "id": 956,
    "name": "灵渠",
    "province": "未知",
    "city": "兴安县",
    "dynasty": "秦代",
    "year": "公元前214年",
    "coordinates": [
      110.6792976580174,
      25.60185948708843
    ]
  },
  {
    "id": 855,
    "name": "汉长安城遗址",
    "province": "陕西省",
    "city": "西安市",
    "dynasty": "西汉",
    "year": "公元前202年（汉高祖五年）",
    "coordinates": [
      108.8862934245102,
      34.30943204951323
    ]
  },
  {
    "id": 853,
    "name": "茂陵",
    "province": "陕西省",
    "city": "兴平县",
    "dynasty": "西汉",
    "year": "公元前139年",
    "coordinates": [
      108.5699546271539,
      34.33629593658817
    ]
  },
  {
    "id": 1852,
    "name": "新安函谷关",
    "province": "河南省",
    "city": "洛阳市",
    "dynasty": "汉代",
    "year": "西汉元鼎三年（公元前114年）",
    "coordinates": [
      112.1724136964505,
      34.71898481168069
    ]
  },
  {
    "id": 1175,
    "name": "临贺故城",
    "province": "未知",
    "city": "贺州市",
    "dynasty": "西汉",
    "year": "公元前111年",
    "coordinates": [
      111.5408625226735,
      24.40836780077706
    ]
  },
  {
    "id": 901,
    "name": "洞沟古墓群",
    "province": "吉林省",
    "city": "辑安县",
    "dynasty": "高句丽",
    "year": "约公元前37年至公元668年",
    "coordinates": [
      126.1687114542078,
      41.10864740427399
    ]
  },
  {
    "id": 1127,
    "name": "五女山山城",
    "province": "辽宁省",
    "city": "桓仁满族自治县",
    "dynasty": "高句丽",
    "year": "公元前37年",
    "coordinates": [
      125.4111784634575,
      41.32564991813788
    ]
  },
  {
    "id": 2330,
    "name": "嘉兴子城遗址",
    "province": "浙江省",
    "city": "嘉兴市",
    "dynasty": "三国",
    "year": "231年",
    "coordinates": [
      120.7787279846222,
      30.7501601192879
    ]
  },
  {
    "id": 1100,
    "name": "曹植墓",
    "province": "山东省",
    "city": "东阿县",
    "dynasty": "魏晋",
    "year": "232年",
    "coordinates": [
      116.2118761344788,
      36.17568356261838
    ]
  },
  {
    "id": 752,
    "name": "敦煌莫高窟",
    "province": "甘肃省",
    "city": "未知",
    "dynasty": "前秦",
    "year": "366年",
    "coordinates": [
      94.66089705468049,
      40.1414621193184
    ]
  },
  {
    "id": 1210,
    "name": "小商桥",
    "province": "河南省",
    "city": "临颍县",
    "dynasty": "隋代",
    "year": "584年",
    "coordinates": [
      113.9616388099699,
      33.7192274378542
    ]
  },
  {
    "id": 851,
    "name": "乾陵",
    "province": "陕西省",
    "city": "乾县",
    "dynasty": "唐代",
    "year": "684年",
    "coordinates": [
      108.2130730278866,
      34.581442425221
    ]
  },
  {
    "id": 1487,
    "name": "升仙太子碑",
    "province": "河南省",
    "city": "偃师市",
    "dynasty": "唐代",
    "year": "699年",
    "coordinates": [
      112.8479431159124,
      34.57220294249345
    ]
  },
  {
    "id": 824,
    "name": "乐山大佛",
    "province": "未知",
    "city": "未知",
    "dynasty": "唐代",
    "year": "713年",
    "coordinates": [
      0,
      0
    ]
  },
  {
    "id": 1304,
    "name": "宝带桥",
    "province": "江苏省",
    "city": "苏州市",
    "dynasty": "唐代",
    "year": "816年",
    "coordinates": [
      120.6465736647142,
      31.27120216074287
    ]
  },
  {
    "id": 1447,
    "name": "三游洞摩崖",
    "province": "湖北省",
    "city": "宜昌市",
    "dynasty": "唐代",
    "year": "819年",
    "coordinates": [
      111.2594658923281,
      30.76792137350139
    ]
  },
  {
    "id": 1032,
    "name": "它山堰",
    "province": "浙江省",
    "city": "鄞县",
    "dynasty": "唐代",
    "year": "833年",
    "coordinates": [
      121.3480170654135,
      29.76970286820965
    ]
  },
  {
    "id": 844,
    "name": "王建墓",
    "province": "四川省",
    "city": "成都市",
    "dynasty": "五代十国（前蜀）",
    "year": "918年",
    "coordinates": [
      104.0447120024105,
      30.67580867271518
    ]
  },
  {
    "id": 1037,
    "name": "永陵",
    "province": "辽宁省",
    "city": "新宾满族自治县",
    "dynasty": "前蜀",
    "year": "918年",
    "coordinates": [
      124.8156560427817,
      41.62676614262352
    ]
  },
  {
    "id": 1923,
    "name": "王处直墓",
    "province": "河北省",
    "city": "保定市",
    "dynasty": "五代十国",
    "year": "923年",
    "coordinates": [
      114.7389061314769,
      38.62157358449242
    ]
  },
  {
    "id": 1367,
    "name": "孟知祥墓",
    "province": "四川省",
    "city": "成都市",
    "dynasty": "五代十国（后蜀）",
    "year": "934年",
    "coordinates": [
      104.1196049724802,
      30.74128584564524
    ]
  },
  {
    "id": 860,
    "name": "溪州铜柱",
    "province": "湖南省",
    "city": "湘西土家族苗族自治州永顺县",
    "dynasty": "五代十国（后晋）",
    "year": "940年",
    "coordinates": [
      109.9476595598706,
      28.75069644255237
    ]
  },
  {
    "id": 890,
    "name": "沧州铁狮子",
    "province": "河北省",
    "city": "沧县",
    "dynasty": "后周",
    "year": "953年",
    "coordinates": [
      117.0106530716419,
      38.20785535566441
    ]
  },
  {
    "id": 967,
    "name": "岳麓书院",
    "province": "湖南省",
    "city": "长沙市",
    "dynasty": "北宋",
    "year": "976年",
    "coordinates": [
      113.0468510750276,
      28.23977065258762
    ]
  },
  {
    "id": 303,
    "name": "托林寺",
    "province": "西藏自治区",
    "city": "未知",
    "dynasty": "古格王国时期",
    "year": "996年",
    "coordinates": [
      79.80495933657267,
      31.48238289641698
    ]
  },
  {
    "id": 739,
    "name": "科迦寺",
    "province": "西藏自治区",
    "city": "未知",
    "dynasty": "宋代",
    "year": "996年",
    "coordinates": [
      81.27482858059689,
      30.19751422128715
    ]
  },
  {
    "id": 896,
    "name": "辽中京遗址",
    "province": "内蒙古自治区",
    "city": "宁城县",
    "dynasty": "辽代",
    "year": "1007年",
    "coordinates": [
      118.8929701810034,
      41.56294495317525
    ]
  },
  {
    "id": 875,
    "name": "赵州陀罗尼经幢",
    "province": "河北省",
    "city": "宁晋县",
    "dynasty": "北宋",
    "year": "1038年",
    "coordinates": [
      114.7686997008654,
      37.74739192104116
    ]
  },
  {
    "id": 2423,
    "name": "花洲书院",
    "province": "河南省",
    "city": "邓州市",
    "dynasty": "北宋",
    "year": "1045年",
    "coordinates": [
      112.0927872741614,
      32.67502302392882
    ]
  },
  {
    "id": 309,
    "name": "西递村",
    "province": "安徽省",
    "city": "未知",
    "dynasty": "北宋",
    "year": "1047年",
    "coordinates": [
      117.9902484503691,
      29.90636901864642
    ]
  },
  {
    "id": 17,
    "name": "周庄古镇",
    "province": "江苏省",
    "city": "未知",
    "dynasty": "宋代",
    "year": "1086年",
    "coordinates": [
      120.8356319437256,
      31.13199650401059
    ]
  },
  {
    "id": 310,
    "name": "宏村",
    "province": "安徽省",
    "city": "未知",
    "dynasty": "南宋",
    "year": "1131年",
    "coordinates": [
      117.9848918707524,
      30.00503008084212
    ]
  },
  {
    "id": 882,
    "name": "卢沟桥",
    "province": "北京市",
    "city": "未知",
    "dynasty": "金代",
    "year": "1189年",
    "coordinates": [
      116.2104414630316,
      39.84861867697533
    ]
  },
  {
    "id": 1701,
    "name": "狮子林",
    "province": "江苏省",
    "city": "苏州市",
    "dynasty": "元代",
    "year": "1342年",
    "coordinates": [
      120.62452648872,
      31.32310292146241
    ]
  },
  {
    "id": 960,
    "name": "平遥城墙",
    "province": "山西省",
    "city": "平遥县",
    "dynasty": "明代",
    "year": "1370年",
    "coordinates": [
      112.1806883491165,
      37.1984734442759
    ]
  },
  {
    "id": 898,
    "name": "万里长城－山海关",
    "province": "河北省",
    "city": "秦皇岛市",
    "dynasty": "明代",
    "year": "1381年",
    "coordinates": [
      119.7011061799391,
      40.02596986876232
    ]
  },
  {
    "id": 895,
    "name": "明孝陵",
    "province": "江苏省",
    "city": "南京市",
    "dynasty": "明代",
    "year": "1381年",
    "coordinates": [
      118.8320393967734,
      32.04415416152506
    ]
  },
  {
    "id": 4,
    "name": "承德避暑山庄",
    "province": "河北",
    "city": "承德市",
    "dynasty": "清代",
    "year": "1703年",
    "coordinates": [
      117.9667,
      40.9667
    ]
  },
  {
    "id": 1665,
    "name": "山海关八国联军营盘旧址",
    "province": "河北省",
    "city": "秦皇岛市",
    "dynasty": "清代",
    "year": "1901年",
    "coordinates": [
      119.592040474442,
      39.93857188357083
    ]
  }
]